<?xml version="1.0" encoding="utf-8" ?>
<kml xmlns="http://www.opengis.net/kml/2.2">
<Document id="root_doc">
<Folder><name>Pozos</name>
  <Placemark>
	<name>Pozo Ganzos</name>
      <Point><coordinates>-99.243375667,19.549930374,0</coordinates></Point>
  </Placemark>
  <Placemark>
	<name>Pozo Palomas</name>
      <Point><coordinates>-99.246765123,19.55340505,0</coordinates></Point>
  </Placemark>
  <Placemark>
	<name>Pozo El Coporo</name>
      <Point><coordinates>-99.251217214,19.5596525620001,0</coordinates></Point>
  </Placemark>
  <Placemark>
	<name>Pozo Atizapán Moderno</name>
      <Point><coordinates>-99.26136034,19.5534477750001,0</coordinates></Point>
  </Placemark>
  <Placemark>
	<name>Pozo López Mateos 1</name>
      <Point><coordinates>-99.2734173709999,19.585999424,0</coordinates></Point>
  </Placemark>
  <Placemark>
	<name>Pozo Lomas Lindas (la garza)</name>
      <Point><coordinates>-99.251720418,19.5706047780001,0</coordinates></Point>
  </Placemark>
  <Placemark>
	<name>Pozo El Pedregal</name>
      <Point><coordinates>-99.253096316,19.5725187080001,0</coordinates></Point>
  </Placemark>
  <Placemark>
	<name>Pozo México Nuevo 1</name>
      <Point><coordinates>-99.263929047,19.561956949,0</coordinates></Point>
  </Placemark>
  <Placemark>
	<name>Pozo El Campanario</name>
      <Point><coordinates>-99.2580954059999,19.5745088140001,0</coordinates></Point>
  </Placemark>
  <Placemark>
	<name>Pozo México Nuevo II</name>
      <Point><coordinates>-99.270368909,19.5590555630001,0</coordinates></Point>
  </Placemark>
  <Placemark>
	<name>Pozo Sayavedra 2</name>
      <Point><coordinates>-99.319614303,19.5666565670001,0</coordinates></Point>
  </Placemark>
  <Placemark>
	<name>Pozo Hacienda Valle Escondido</name>
      <Point><coordinates>-99.3171012989999,19.563787228,0</coordinates></Point>
  </Placemark>
  <Placemark>
	<name>Pozo Los Reales</name>
      <Point><coordinates>-99.3209849519999,19.560716814,0</coordinates></Point>
  </Placemark>
  <Placemark>
	<name>Pozo El Grillo 1</name>
      <Point><coordinates>-99.312338923,19.5611476830001,0</coordinates></Point>
  </Placemark>
  <Placemark>
	<name>Pozo La Presa</name>
      <Point><coordinates>-99.317433297,19.5580571720001,0</coordinates></Point>
  </Placemark>
  <Placemark>
	<name>Pozo Lomas de Valle Escondido</name>
      <Point><coordinates>-99.3133655729999,19.554675391,0</coordinates></Point>
  </Placemark>
  <Placemark>
	<name>Pozo Chiluca 2</name>
      <Point><coordinates>-99.3070961989999,19.54136556,0</coordinates></Point>
  </Placemark>
  <Placemark>
	<name>Pozo La Cañada</name>
      <Point><coordinates>-99.242016782,19.540036593,0</coordinates></Point>
  </Placemark>
  <Placemark>
	<name>Pozo Tinacal</name>
      <Point><coordinates>-99.248237595,19.531325435,0</coordinates></Point>
  </Placemark>
  <Placemark>
	<name>Pozo López Mateos II</name>
      <Point><coordinates>-99.2731499499999,19.5857377560001,0</coordinates></Point>
  </Placemark>
  <Placemark>
	<name>Pozo Rodolfo Casillas</name>
      <Point><coordinates>-99.2400728809999,19.55831891,0</coordinates></Point>
  </Placemark>
  <Placemark>
	<name>Pozo Cabecera Municipal I</name>
      <Point><coordinates>-99.247818307,19.5626214170001,0</coordinates></Point>
  </Placemark>
  <Placemark>
	<name>Pozo Cabecera municipal II</name>
      <Point><coordinates>-99.247789844,19.562711827,0</coordinates></Point>
  </Placemark>
  <Placemark>
	<name>Pozo Real de Atizapán</name>
      <Point><coordinates>-99.2368727309999,19.561958331,0</coordinates></Point>
  </Placemark>
  <Placemark>
	<name>Pozo Ahuehuetes</name>
      <Point><coordinates>-99.23832542,19.5579078110001,0</coordinates></Point>
  </Placemark>
  <Placemark>
	<name>Pozo Homex</name>
      <Point><coordinates>-99.2301861719999,19.5460436430001,0</coordinates></Point>
  </Placemark>
  <Placemark>
	<name>Pozo El Cerrito</name>
      <Point><coordinates>-99.228722926,19.5764823710001,0</coordinates></Point>
  </Placemark>
  <Placemark>
	<name>Pozo Las Moritas</name>
      <Point><coordinates>-99.2362460579999,19.57138673,0</coordinates></Point>
  </Placemark>
  <Placemark>
	<name>Pozo el Tunel</name>
      <Point><coordinates>-99.236157277,19.575344999,0</coordinates></Point>
  </Placemark>
  <Placemark>
	<name>Pozo Rebombeo Fuentes de Satélite 1</name>
      <Point><coordinates>-99.259644333,19.52360077,0</coordinates></Point>
  </Placemark>
  <Placemark>
	<name>Pozo Rebombeo Fincas (Matador Joselito Huerta)</name>
      <Point><coordinates>-99.3321096079999,19.56903356,0</coordinates></Point>
  </Placemark>
  <Placemark>
	<name>Pozo Rebombeo Lomas de Atizapán II</name>
      <Point><coordinates>-99.268300763,19.5536544870001,0</coordinates></Point>
  </Placemark>
  <Placemark>
	<name>Pozo Rebombeo  Sayavedra 1</name>
      <Point><coordinates>-99.3187256049999,19.5801594320001,0</coordinates></Point>
  </Placemark>
  <Placemark>
	<name>Pozo Madín Nuevo</name>
      <Point><coordinates>-99.267153476,19.528460823,0</coordinates></Point>
  </Placemark>
  <Placemark>
	<name>Pozo Rebombeo Chiluca 1</name>
      <Point><coordinates>-99.306258681,19.5471235810001,0</coordinates></Point>
  </Placemark>
  <Placemark>
	<name>Pozo Rebombeo Lomas de Atizapán I</name>
      <Point><coordinates>-99.2581687209999,19.554681407,0</coordinates></Point>
  </Placemark>
  <Placemark>
	<name>Pozo Rebombeo San Javier</name>
      <Point><coordinates>-99.276805386,19.5878106970001,0</coordinates></Point>
  </Placemark>
  <Placemark>
	<name>Pozo Rebombeo Emiliano Zapata</name>
      <Point><coordinates>-99.269550583,19.5829236180001,0</coordinates></Point>
  </Placemark>
  <Placemark>
	<name>Pozo Rebombeo Lomas de La Hacienda</name>
      <Point><coordinates>-99.2334520699999,19.576521499,0</coordinates></Point>
  </Placemark>
  <Placemark>
	<name>Pozo Rebombeo Atizapán  II</name>
      <Point><coordinates>-99.226577465,19.5863180330001,0</coordinates></Point>
  </Placemark>
  <Placemark>
	<name>Pozo Rebombeo la Huerta</name>
      <Point><coordinates>-99.233946944,19.573434051,0</coordinates></Point>
  </Placemark>
  <Placemark>
	<name>Pozo El Potrero</name>
      <Point><coordinates>-99.236893172,19.549839585,0</coordinates></Point>
  </Placemark>
  <Placemark>
	<name>Pozo Brisas (sin concesión)</name>
      <Point><coordinates>-99.2419173229999,19.5692355150001,0</coordinates></Point>
  </Placemark>
  <Placemark>
	<name>Pozo 224 (sin concesión)</name>
      <Point><coordinates>-99.243171861,19.553879852,0</coordinates></Point>
  </Placemark>
  <Placemark>
	<name>Pozo Hoyo 14 (sin concesión)</name>
      <Point><coordinates>-99.311731179,19.559933501,0</coordinates></Point>
  </Placemark>
  <Placemark>
	<name>Pozo Hoyo 9 (sin concesión)</name>
      <Point><coordinates>-99.309660632,19.5582946110001,0</coordinates></Point>
  </Placemark>
  <Placemark>
	<name>Pozo el Grillo 2 (sin concesión)</name>
      <Point><coordinates>-99.308887136,19.5608011780001,0</coordinates></Point>
  </Placemark>
  <Placemark>
	<name>Pozo Calacoaya (sin concesión)</name>
      <Point><coordinates>-99.241235379,19.5337839690001,0</coordinates></Point>
  </Placemark>
  <Placemark>
	<name>Pozo El Calvario (sin concesión)</name>
      <Point><coordinates>-99.248169907,19.530692931,0</coordinates></Point>
  </Placemark>
  <Placemark>
	<name>Pozo 221</name>
      <Point><coordinates>-99.234184956,19.542622484,0</coordinates></Point>
  </Placemark>
  <Placemark>
	<name>Pozo Lázaro Cárdenas</name>
      <Point><coordinates>-99.2338821499999,19.548715503,0</coordinates></Point>
  </Placemark>
  <Placemark>
	<name>Pozo Hípico (Torre Molinos)</name>
      <Point><coordinates>-99.2208736329999,19.5746937760001,0</coordinates></Point>
  </Placemark>
</Folder>
</Document></kml>
